{"timestamp": 1421366026, "weather": {"current_observation": {"heat_index_c": "NA", "local_tz_long": "America/Los_Angeles", "observation_location": {"city": "SoMa, San Francisco", "full": "SoMa, San Francisco, California", "elevation": "36 ft", "country": "US", "longitude": "-122.411018", "state": "California", "country_iso3166": "US", "latitude": "37.773590"}, "weather": "Mostly Cloudy", "local_time_rfc822": "Thu, 15 Jan 2015 15:53:46 -0800", "forecast_url": "http://www.wunderground.com/US/CA/San_Francisco.html", "windchill_c": "NA", "estimated": {}, "windchill_f": "NA", "pressure_in": "30.26", "dewpoint_string": "46 F (8 C)", "solarradiation": "71", "ob_url": "http://www.wunderground.com/cgi-bin/findweather/getForecast?query=37.773590,-122.411018", "local_epoch": "1421366026", "icon_url": "http://icons.wxug.com/i/c/k/mostlycloudy.gif", "display_location": {"city": "San Francisco", "full": "San Francisco, CA", "magic": "1", "state_name": "California", "zip": "94101", "country": "US", "longitude": "-122.41825867", "state": "CA", "wmo": "99999", "country_iso3166": "US", "latitude": "37.77500916", "elevation": "47.00000000"}, "precip_today_string": "0.00 in (0 mm)", "dewpoint_f": 46, "dewpoint_c": 8, "precip_today_metric": "0", "feelslike_c": "14.2", "image": {"url": "http://icons.wxug.com/graphics/wu2/logo_130x80.png", "link": "http://www.wunderground.com", "title": "Weather Underground"}, "wind_mph": 2.9, "wind_gust_kph": "7.9", "feelslike_f": "57.6", "local_tz_short": "PST", "precip_today_in": "0.00", "heat_index_f": "NA", "nowcast": "", "temp_f": 57.6, "station_id": "KCASANFR328", "windchill_string": "NA", "temp_c": 14.2, "visibility_km": "6.4", "pressure_trend": "0", "visibility_mi": "4.0", "wind_string": "From the NW at 2.9 MPH Gusting to 4.9 MPH", "pressure_mb": "1025", "temperature_string": "57.6 F (14.2 C)", "wind_dir": "NW", "icon": "mostlycloudy", "wind_degrees": 315, "precip_1hr_in": "0.00", "local_tz_offset": "-0800", "wind_kph": 4.7, "wind_gust_mph": "4.9", "observation_time": "Last Updated on January 15, 3:53 PM PST", "UV": "1.0", "heat_index_string": "NA", "observation_epoch": "1421366025", "precip_1hr_metric": " 0", "relative_humidity": "66%", "observation_time_rfc822": "Thu, 15 Jan 2015 15:53:45 -0800", "precip_1hr_string": "0.00 in ( 0 mm)", "feelslike_string": "57.6 F (14.2 C)", "history_url": "http://www.wunderground.com/weatherstation/WXDailyHistory.asp?ID=KCASANFR328"}, "response": {"termsofService": "http://www.wunderground.com/weather/api/d/terms.html", "version": "0.1", "features": {"geolookup": 1, "conditions": 1, "forecast": 1}}, "forecast": {"txt_forecast": {"date": "2:57 PM PST", "forecastday": [{"title": "Thursday", "icon_url": "http://icons.wxug.com/i/c/k/mostlycloudy.gif", "fcttext_metric": "Mainly cloudy. A few peeks of sunshine possible. High 14C. Winds light and variable.", "period": 0, "pop": "10", "fcttext": "Mainly cloudy. Lows overnight in the low 50s.", "icon": "mostlycloudy"}, {"title": "Thursday Night", "icon_url": "http://icons.wxug.com/i/c/k/nt_mostlycloudy.gif", "fcttext_metric": "Partly cloudy skies. Low 11C. Winds light and variable.", "period": 1, "pop": "10", "fcttext": "Mostly cloudy. Low near 50F. Winds light and variable.", "icon": "nt_mostlycloudy"}, {"title": "Friday", "icon_url": "http://icons.wxug.com/i/c/k/partlycloudy.gif", "fcttext_metric": "Considerable clouds early. Some decrease in clouds later in the day. Slight chance of a rain shower. High 17C. Winds light and variable.", "period": 2, "pop": "20", "fcttext": "Considerable clouds early. Some decrease in clouds later in the day. Slight chance of a rain shower. High 62F. Winds light and variable.", "icon": "partlycloudy"}, {"title": "Friday Night", "icon_url": "http://icons.wxug.com/i/c/k/nt_partlycloudy.gif", "fcttext_metric": "Partly cloudy skies. Low 11C. Winds light and variable.", "period": 3, "pop": "10", "fcttext": "Partly cloudy. Low near 50F. Winds light and variable.", "icon": "nt_partlycloudy"}, {"title": "Saturday", "icon_url": "http://icons.wxug.com/i/c/k/partlycloudy.gif", "fcttext_metric": "Cloudy early with partial sunshine expected late. High 18C. Winds light and variable.", "period": 4, "pop": "10", "fcttext": "Cloudy skies early, followed by partial clearing. High 66F. Winds light and variable.", "icon": "partlycloudy"}, {"title": "Saturday Night", "icon_url": "http://icons.wxug.com/i/c/k/nt_mostlycloudy.gif", "fcttext_metric": "Partly cloudy skies early will give way to considerable cloudiness and fog after midnight. Low 12C. Winds light and variable.", "period": 5, "pop": "10", "fcttext": "Partly cloudy skies early will become overcast later during the night. Low 53F. Winds light and variable.", "icon": "nt_mostlycloudy"}, {"title": "Sunday", "icon_url": "http://icons.wxug.com/i/c/k/cloudy.gif", "fcttext_metric": "Cloudy. High 18C. Winds light and variable.", "period": 6, "pop": "10", "fcttext": "Cloudy skies. High 64F. Winds WSW at 5 to 10 mph.", "icon": "cloudy"}, {"title": "Sunday Night", "icon_url": "http://icons.wxug.com/i/c/k/nt_cloudy.gif", "fcttext_metric": "Partly cloudy skies in the evening, then becoming cloudy overnight. Low 12C. Winds light and variable.", "period": 7, "pop": "10", "fcttext": "Cloudy. Low 53F. Winds light and variable.", "icon": "nt_cloudy"}]}, "simpleforecast": {"forecastday": [{"avehumidity": 77, "maxhumidity": 0, "avewind": {"kph": 2, "degrees": 304, "dir": "NW", "mph": 1}, "icon_url": "http://icons.wxug.com/i/c/k/mostlycloudy.gif", "snow_allday": {"cm": 0.0, "in": 0.0}, "maxwind": {"kph": 20, "degrees": 0, "dir": "", "mph": 12}, "minhumidity": 0, "period": 1, "pop": 10, "skyicon": "", "high": {"fahrenheit": "59", "celsius": "15"}, "qpf_night": {"mm": 0, "in": 0.0}, "qpf_allday": {"mm": 0, "in": 0.0}, "low": {"fahrenheit": "50", "celsius": "10"}, "snow_night": {"cm": 0.0, "in": 0.0}, "date": {"tz_short": "PST", "weekday_short": "Thu", "isdst": "0", "monthname": "January", "hour": 19, "min": "00", "ampm": "PM", "tz_long": "America/Los_Angeles", "month": 1, "epoch": "1421377200", "sec": 0, "weekday": "Thursday", "pretty": "7:00 PM PST on January 15, 2015", "year": 2015, "yday": 14, "day": 15, "monthname_short": "Jan"}, "snow_day": {"cm": null, "in": null}, "qpf_day": {"mm": null, "in": null}, "conditions": "Mostly Cloudy", "icon": "mostlycloudy"}, {"avehumidity": 78, "maxhumidity": 0, "avewind": {"kph": 6, "degrees": 214, "dir": "SW", "mph": 4}, "icon_url": "http://icons.wxug.com/i/c/k/partlycloudy.gif", "snow_allday": {"cm": 0.0, "in": 0.0}, "maxwind": {"kph": 8, "degrees": 214, "dir": "SW", "mph": 5}, "minhumidity": 0, "period": 2, "pop": 20, "skyicon": "", "high": {"fahrenheit": "62", "celsius": "17"}, "qpf_night": {"mm": 0, "in": 0.0}, "qpf_allday": {"mm": 0, "in": 0.0}, "low": {"fahrenheit": "50", "celsius": "10"}, "snow_night": {"cm": 0.0, "in": 0.0}, "date": {"tz_short": "PST", "weekday_short": "Fri", "isdst": "0", "monthname": "January", "hour": 19, "min": "00", "ampm": "PM", "tz_long": "America/Los_Angeles", "month": 1, "epoch": "1421463600", "sec": 0, "weekday": "Friday", "pretty": "7:00 PM PST on January 16, 2015", "year": 2015, "yday": 15, "day": 16, "monthname_short": "Jan"}, "snow_day": {"cm": 0.0, "in": 0.0}, "qpf_day": {"mm": 0, "in": 0.0}, "conditions": "Partly Cloudy", "icon": "partlycloudy"}, {"avehumidity": 81, "maxhumidity": 0, "avewind": {"kph": 8, "degrees": 337, "dir": "NNW", "mph": 5}, "icon_url": "http://icons.wxug.com/i/c/k/partlycloudy.gif", "snow_allday": {"cm": 0.0, "in": 0.0}, "maxwind": {"kph": 16, "degrees": 337, "dir": "NNW", "mph": 10}, "minhumidity": 0, "period": 3, "pop": 10, "skyicon": "", "high": {"fahrenheit": "66", "celsius": "19"}, "qpf_night": {"mm": 0, "in": 0.0}, "qpf_allday": {"mm": 0, "in": 0.0}, "low": {"fahrenheit": "53", "celsius": "12"}, "snow_night": {"cm": 0.0, "in": 0.0}, "date": {"tz_short": "PST", "weekday_short": "Sat", "isdst": "0", "monthname": "January", "hour": 19, "min": "00", "ampm": "PM", "tz_long": "America/Los_Angeles", "month": 1, "epoch": "1421550000", "sec": 0, "weekday": "Saturday", "pretty": "7:00 PM PST on January 17, 2015", "year": 2015, "yday": 16, "day": 17, "monthname_short": "Jan"}, "snow_day": {"cm": 0.0, "in": 0.0}, "qpf_day": {"mm": 0, "in": 0.0}, "conditions": "Partly Cloudy", "icon": "partlycloudy"}, {"avehumidity": 84, "maxhumidity": 0, "avewind": {"kph": 10, "degrees": 253, "dir": "WSW", "mph": 6}, "icon_url": "http://icons.wxug.com/i/c/k/cloudy.gif", "snow_allday": {"cm": 0.0, "in": 0.0}, "maxwind": {"kph": 16, "degrees": 253, "dir": "WSW", "mph": 10}, "minhumidity": 0, "period": 4, "pop": 10, "skyicon": "", "high": {"fahrenheit": "64", "celsius": "18"}, "qpf_night": {"mm": 0, "in": 0.0}, "qpf_allday": {"mm": 0, "in": 0.0}, "low": {"fahrenheit": "53", "celsius": "12"}, "snow_night": {"cm": 0.0, "in": 0.0}, "date": {"tz_short": "PST", "weekday_short": "Sun", "isdst": "0", "monthname": "January", "hour": 19, "min": "00", "ampm": "PM", "tz_long": "America/Los_Angeles", "month": 1, "epoch": "1421636400", "sec": 0, "weekday": "Sunday", "pretty": "7:00 PM PST on January 18, 2015", "year": 2015, "yday": 17, "day": 18, "monthname_short": "Jan"}, "snow_day": {"cm": 0.0, "in": 0.0}, "qpf_day": {"mm": 0, "in": 0.0}, "conditions": "Overcast", "icon": "cloudy"}]}}, "location": {"city": "San Francisco", "magic": "1", "requesturl": "US/CA/San_Francisco.html", "zip": "94101", "lon": "-122.41825867", "country": "US", "tz_long": "America/Los_Angeles", "l": "/q/zmw:94101.1.99999", "lat": "37.77500916", "state": "CA", "wmo": "99999", "wuiurl": "http://www.wunderground.com/US/CA/San_Francisco.html", "country_iso3166": "US", "country_name": "USA", "type": "CITY", "tz_short": "PST", "nearby_weather_stations": {"airport": {"station": [{"city": "San Francisco", "country": "US", "lon": "-122.36557770", "icao": "KSFO", "state": "CA", "lat": "37.61960983"}, {"city": "Oakland", "country": "US", "lon": "-122.23294067", "icao": "KOAK", "state": "CA", "lat": "37.71780014"}, {"city": "Hayward", "country": "US", "lon": "-122.12174988", "icao": "KHWD", "state": "CA", "lat": "37.65891647"}, {"city": "Half Moon Bay", "country": "US", "lon": "-122.49958801", "icao": "KHAF", "state": "CA", "lat": "37.51361084"}]}, "pws": {"station": [{"city": "San Francisco", "neighborhood": "NEMA", "distance_mi": 0, "country": "US", "lon": -122.417542, "state": "CA", "distance_km": 0, "lat": 37.776077, "id": "KCASANFR291"}, {"city": "San Francisco", "neighborhood": "SoMa", "distance_mi": 0, "country": "US", "lon": -122.411018, "state": "CA", "distance_km": 0, "lat": 37.77359, "id": "KCASANFR328"}, {"city": "San Francisco", "neighborhood": "North Mission (Valencia and Market)", "distance_mi": 0, "country": "US", "lon": -122.4235, "state": "CA", "distance_km": 0, "lat": 37.770599, "id": "KCASANFR49"}, {"city": "San Francisco", "neighborhood": "SOMA", "distance_mi": 0, "country": "US", "lon": -122.408005, "state": "CA", "distance_km": 0, "lat": 37.778488, "id": "KCASANFR131"}, {"city": "San Francisco", "neighborhood": "Mission (at Bar and Burrito)", "distance_mi": 0, "country": "US", "lon": -122.422913, "state": "CA", "distance_km": 1, "lat": 37.76553, "id": "KCASANFR142"}, {"city": "San Francisco", "neighborhood": "Mission District", "distance_mi": 0, "country": "US", "lon": -122.408096, "state": "CA", "distance_km": 1, "lat": 37.767326, "id": "KCASANFR326"}, {"city": "San Francisco", "neighborhood": "SOMA", "distance_mi": 0, "country": "US", "lon": -122.407166, "state": "CA", "distance_km": 1, "lat": 37.782803, "id": "KCASANFR231"}, {"city": "San Francisco", "neighborhood": "The Mission, 19th and Folsom", "distance_mi": 1, "country": "US", "lon": -122.415085, "state": "CA", "distance_km": 1, "lat": 37.759354, "id": "KCASANFR259"}, {"city": "San Francisco", "neighborhood": "The Castro", "distance_mi": 1, "country": "US", "lon": -122.437416, "state": "CA", "distance_km": 1, "lat": 37.767139, "id": "KCASANFR354"}, {"city": "San Francisco", "neighborhood": "The Castro", "distance_mi": 1, "country": "US", "lon": -122.431992, "state": "CA", "distance_km": 1, "lat": 37.761108, "id": "KCASANFR357"}, {"city": "San Francisco", "neighborhood": "Castro/San Francisco", "distance_mi": 1, "country": "US", "lon": -122.43042, "state": "CA", "distance_km": 2, "lat": 37.759239, "id": "KPCASANF2"}, {"city": "San Francisco", "neighborhood": "The Castro", "distance_mi": 1, "country": "US", "lon": -122.431648, "state": "CA", "distance_km": 2, "lat": 37.759777, "id": "KCASANFR114"}, {"city": "San Francisco", "neighborhood": "South of Market", "distance_mi": 1, "country": "US", "lon": -122.39399, "state": "CA", "distance_km": 2, "lat": 37.776611, "id": "KCASANFR355"}, {"city": "San Francisco", "neighborhood": "South of Market", "distance_mi": 1, "country": "US", "lon": -122.394188, "state": "CA", "distance_km": 2, "lat": 37.779007, "id": "KCASANFR314"}, {"city": "San Francisco", "neighborhood": "Dolores Heights", "distance_mi": 1, "country": "US", "lon": -122.431664, "state": "CA", "distance_km": 2, "lat": 37.758053, "id": "KCASANFR297"}, {"city": "San Francisco", "neighborhood": "South Beach", "distance_mi": 1, "country": "US", "lon": -122.392944, "state": "CA", "distance_km": 2, "lat": 37.777248, "id": "KCASANFR349"}, {"city": "San Francisco", "neighborhood": "Dolores Heights", "distance_mi": 1, "country": "US", "lon": -122.430672, "state": "CA", "distance_km": 2, "lat": 37.757275, "id": "KCASANFR343"}, {"city": "San Francisco", "neighborhood": "SOMA South Park", "distance_mi": 1, "country": "US", "lon": -122.393753, "state": "CA", "distance_km": 2, "lat": 37.782135, "id": "KCASANFR327"}, {"city": "San Francisco", "neighborhood": "The Castro", "distance_mi": 1, "country": "US", "lon": -122.438721, "state": "CA", "distance_km": 2, "lat": 37.76144, "id": "KCASANFR317"}, {"city": "San Francisco", "neighborhood": "Weather Underground HQ", "distance_mi": 1, "country": "US", "lon": -122.404442, "state": "CA", "distance_km": 2, "lat": 37.793293, "id": "KCASANFR236"}, {"city": "San Francisco", "neighborhood": "The Mission: Even the weather is hip", "distance_mi": 1, "country": "US", "lon": -122.411728, "state": "CA", "distance_km": 2, "lat": 37.754234, "id": "KCASANFR79"}, {"city": "San Francisco", "neighborhood": "Potrero Hill, Wisconsin Street", "distance_mi": 1, "country": "US", "lon": -122.399506, "state": "CA", "distance_km": 2, "lat": 37.759552, "id": "KCASANFR351"}, {"city": "San Francisco", "neighborhood": "Noe Valley", "distance_mi": 1, "country": "US", "lon": -122.429291, "state": "CA", "distance_km": 2, "lat": 37.754993, "id": "KCASANFR319"}, {"city": "San Francisco", "neighborhood": "Haight-Ashbury", "distance_mi": 1, "country": "US", "lon": -122.445885, "state": "CA", "distance_km": 2, "lat": 37.771973, "id": "KCASANFR340"}, {"city": "San Francisco", "neighborhood": "Castro/Eureka Valley", "distance_mi": 1, "country": "US", "lon": -122.437302, "state": "CA", "distance_km": 2, "lat": 37.758636, "id": "KCASANFR138"}, {"city": "San Francisco", "neighborhood": "Drew School", "distance_mi": 1, "country": "US", "lon": -122.442177, "state": "CA", "distance_km": 2, "lat": 37.787407, "id": "KCASANFR155"}, {"city": "San Francisco", "neighborhood": "South Beach", "distance_mi": 1, "country": "US", "lon": -122.391205, "state": "CA", "distance_km": 2, "lat": 37.782482, "id": "KCASANFR309"}, {"city": "San Francisco", "neighborhood": "Pacific Heights", "distance_mi": 1, "country": "US", "lon": -122.441307, "state": "CA", "distance_km": 2, "lat": 37.789127, "id": "KCASANFR166"}]}}}}}